[{"name":"Social Gaming Network","category_code":"games_video","number_of_employees":100.0,"founded_year":2011,"country":"USA","city":"Los Angeles","lat":37.446823,"long":-122.161523},{"name":"Navara","category_code":"software","number_of_employees":80.0,"founded_year":2012,"country":"NLD","city":"Maarssen","lat":52.126616,"long":5.038078},{"name":"Unison Technologies","category_code":"software","number_of_employees":30.0,"founded_year":2011,"country":"USA","city":"New York","lat":40.7645772,"long":-73.9799007},{"name":"Pixelmatic","category_code":"games_video","number_of_employees":10.0,"founded_year":2011,"country":"CAN","city":"Vancouver","lat":49.263588,"long":-123.138565},{"name":"Fuzz","category_code":"games_video","number_of_employees":6.0,"founded_year":2011,"country":"USA","city":"Santa Clara","lat":37.760524,"long":-122.387799},{"name":"Carfeine","category_code":"software","number_of_employees":5.0,"founded_year":2012,"country":"USA","city":"Bethesda","lat":38.989124,"long":-77.026676},{"name":"Hayen Company","category_code":"games_video","number_of_employees":1.0,"founded_year":2011,"country":"USA","city":"Columbia","lat":34.019114,"long":-81.004871},{"name":"Kidos","category_code":"games_video","number_of_employees":null,"founded_year":2011,"country":"USA","city":"New York","lat":40.768058,"long":-73.956599},{"name":"Kidos","category_code":"games_video","number_of_employees":null,"founded_year":2011,"country":"USA","city":"New York","lat":40.768058,"long":-73.956599},{"name":"VisualOn","category_code":"software","number_of_employees":null,"founded_year":2011,"country":"USA","city":"Santa Clara","lat":37.270518,"long":-121.955879},{"name":"99designs","category_code":"design","number_of_employees":100.0,"founded_year":2008,"country":"USA","city":"San Francisco","lat":37.7955307,"long":-122.4005983},{"name":"Graticle","category_code":"design","number_of_employees":1.0,"founded_year":2009,"country":"USA","city":"Ellensburg","lat":45.7968414,"long":-122.6931439}]